{
"type": "FeatureCollection",
"name": "CCTV_Cameras",
"crs": { "type": "name", "properties": { "name": "urn:ogc:def:crs:OGC:1.3:CRS84" } },
"features": [
{ "type": "Feature", "properties": { "OID_": 0, "Name": "Auas Road & Frankie Frederik Drive", "FolderPath": "Untitled layer", "SymbolID": 0, "AltMode": -1, "Base": 0.0, "Snippet": null, "PopupInfo": null, "HasLabel": -1, "LabelID": 0, "NEAR_FID": 258, "NEAR_DIST": 415.74912848999998 }, "geometry": { "type": "Point", "coordinates": [ 17.088764100000049, -22.625731599999938, 0.0 ] } },
{ "type": "Feature", "properties": { "OID_": 0, "Name": "Western Bypass & Mandume Ndemufayo Avenue", "FolderPath": "Untitled layer", "SymbolID": 0, "AltMode": -1, "Base": 0.0, "Snippet": null, "PopupInfo": null, "HasLabel": -1, "LabelID": 0, "NEAR_FID": -1, "NEAR_DIST": -1.0 }, "geometry": { "type": "Point", "coordinates": [ 17.058380400000033, -22.61623069999996, 0.0 ] } },
{ "type": "Feature", "properties": { "OID_": 0, "Name": "Bernt Carlsson Road & Western Bypass", "FolderPath": "Untitled layer", "SymbolID": 0, "AltMode": -1, "Base": 0.0, "Snippet": null, "PopupInfo": null, "HasLabel": -1, "LabelID": 0, "NEAR_FID": -1, "NEAR_DIST": -1.0 }, "geometry": { "type": "Point", "coordinates": [ 17.052544, -22.596576099999936, 0.0 ] } },
{ "type": "Feature", "properties": { "OID_": 0, "Name": "David Hosea Meroro & Hendrik Witbooi Drive", "FolderPath": "Untitled layer", "SymbolID": 0, "AltMode": -1, "Base": 0.0, "Snippet": null, "PopupInfo": null, "HasLabel": -1, "LabelID": 0, "NEAR_FID": -1, "NEAR_DIST": -1.0 }, "geometry": { "type": "Point", "coordinates": [ 17.058638, -22.582402599999966, 0.0 ] } },
{ "type": "Feature", "properties": { "OID_": 0, "Name": "Long Island Street", "FolderPath": "Untitled layer", "SymbolID": 0, "AltMode": -1, "Base": 0.0, "Snippet": null, "PopupInfo": null, "HasLabel": -1, "LabelID": 0, "NEAR_FID": 172, "NEAR_DIST": 70.708481831699999 }, "geometry": { "type": "Point", "coordinates": [ 17.047149600000068, -22.579205399999978, 0.0 ] } },
{ "type": "Feature", "properties": { "OID_": 0, "Name": "Otjomuise Road & Sam Nujoma Road", "FolderPath": "Untitled layer", "SymbolID": 0, "AltMode": -1, "Base": 0.0, "Snippet": null, "PopupInfo": null, "HasLabel": -1, "LabelID": 0, "NEAR_FID": 160, "NEAR_DIST": 16.9576700846 }, "geometry": { "type": "Point", "coordinates": [ 17.035292600000048, -22.563993699999969, 0.0 ] } },
{ "type": "Feature", "properties": { "OID_": 0, "Name": "Sam Nujoma Drive & Western Bypass", "FolderPath": "Untitled layer", "SymbolID": 0, "AltMode": -1, "Base": 0.0, "Snippet": null, "PopupInfo": null, "HasLabel": -1, "LabelID": 0, "NEAR_FID": -1, "NEAR_DIST": -1.0 }, "geometry": { "type": "Point", "coordinates": [ 17.052470800000037, -22.568432199999961, 0.0 ] } },
{ "type": "Feature", "properties": { "OID_": 0, "Name": "Sam Nujoma Drive & Hendrik Witbooi Drive", "FolderPath": "Untitled layer", "SymbolID": 0, "AltMode": -1, "Base": 0.0, "Snippet": null, "PopupInfo": null, "HasLabel": -1, "LabelID": 0, "NEAR_FID": 234, "NEAR_DIST": 325.91602803000001 }, "geometry": { "type": "Point", "coordinates": [ 17.058307300000024, -22.571622299999945, 0.0 ] } },
{ "type": "Feature", "properties": { "OID_": 0, "Name": "Bach Street & Sam Nujoma Drive", "FolderPath": "Untitled layer", "SymbolID": 0, "AltMode": -1, "Base": 0.0, "Snippet": null, "PopupInfo": null, "HasLabel": -1, "LabelID": 0, "NEAR_FID": 249, "NEAR_DIST": 499.37835745699999 }, "geometry": { "type": "Point", "coordinates": [ 17.073265800000058, -22.570240599999977, 0.0 ] } },
{ "type": "Feature", "properties": { "OID_": 0, "Name": "Hosea Kutako Drive & Sam Nujoma Drive", "FolderPath": "Untitled layer", "SymbolID": 0, "AltMode": -1, "Base": 0.0, "Snippet": null, "PopupInfo": null, "HasLabel": -1, "LabelID": 0, "NEAR_FID": 250, "NEAR_DIST": 439.22488809800001 }, "geometry": { "type": "Point", "coordinates": [ 17.077094100000068, -22.570484299999976, 0.0 ] } },
{ "type": "Feature", "properties": { "OID_": 0, "Name": "Goshawk Street & David Hosea Meroro Road", "FolderPath": "Untitled layer", "SymbolID": 0, "AltMode": -1, "Base": 0.0, "Snippet": null, "PopupInfo": null, "HasLabel": -1, "LabelID": 0, "NEAR_FID": -1, "NEAR_DIST": -1.0 }, "geometry": { "type": "Point", "coordinates": [ 17.069734900000071, -22.579321099999959, 0.0 ] } },
{ "type": "Feature", "properties": { "OID_": 0, "Name": "Mandume Ndemufayo Road & Auas Road", "FolderPath": "Untitled layer", "SymbolID": 0, "AltMode": -1, "Base": 0.0, "Snippet": null, "PopupInfo": null, "HasLabel": -1, "LabelID": 0, "NEAR_FID": -1, "NEAR_DIST": -1.0 }, "geometry": { "type": "Point", "coordinates": [ 17.080270600000063, -22.592595199999948, 0.0 ] } },
{ "type": "Feature", "properties": { "OID_": 0, "Name": "Julius Nyerere Street & Mandume Ndemufayo Road", "FolderPath": "Untitled layer", "SymbolID": 0, "AltMode": -1, "Base": 0.0, "Snippet": null, "PopupInfo": null, "HasLabel": -1, "LabelID": 0, "NEAR_FID": -1, "NEAR_DIST": -1.0 }, "geometry": { "type": "Point", "coordinates": [ 17.080647, -22.583318399999939, 0.0 ] } },
{ "type": "Feature", "properties": { "OID_": 0, "Name": "David Hosea Meroro Road & Mandume Ndemufayo Road", "FolderPath": "Untitled layer", "SymbolID": 0, "AltMode": -1, "Base": 0.0, "Snippet": null, "PopupInfo": null, "HasLabel": -1, "LabelID": 0, "NEAR_FID": 231, "NEAR_DIST": 454.201456049 }, "geometry": { "type": "Point", "coordinates": [ 17.081601800000044, -22.57778959999996, 0.0 ] } },
{ "type": "Feature", "properties": { "OID_": 0, "Name": "Jan Jonker Street & Julius Nyerere Street", "FolderPath": "Untitled layer", "SymbolID": 0, "AltMode": -1, "Base": 0.0, "Snippet": null, "PopupInfo": null, "HasLabel": -1, "LabelID": 0, "NEAR_FID": 231, "NEAR_DIST": 344.79865260499997 }, "geometry": { "type": "Point", "coordinates": [ 17.087771600000053, -22.578887, 0.0 ] } },
{ "type": "Feature", "properties": { "OID_": 0, "Name": "Jan Jonker Street & Robert Mugabe Avenue", "FolderPath": "Untitled layer", "SymbolID": 0, "AltMode": -1, "Base": 0.0, "Snippet": null, "PopupInfo": null, "HasLabel": -1, "LabelID": 0, "NEAR_FID": 230, "NEAR_DIST": 285.87415489900002 }, "geometry": { "type": "Point", "coordinates": [ 17.095346100000029, -22.582175899999982, 0.0 ] } },
{ "type": "Feature", "properties": { "OID_": 0, "Name": "Sam Nujoma Drive & Mandume Ndemufayo Road", "FolderPath": "Untitled layer", "SymbolID": 0, "AltMode": -1, "Base": 0.0, "Snippet": null, "PopupInfo": null, "HasLabel": -1, "LabelID": 0, "NEAR_FID": -1, "NEAR_DIST": -1.0 }, "geometry": { "type": "Point", "coordinates": [ 17.082022, -22.571732399999973, 0.0 ] } },
{ "type": "Feature", "properties": { "OID_": 0, "Name": "Tal Street & Sam Nujoma Drive", "FolderPath": "Untitled layer", "SymbolID": 0, "AltMode": -1, "Base": 0.0, "Snippet": null, "PopupInfo": null, "HasLabel": -1, "LabelID": 0, "NEAR_FID": -1, "NEAR_DIST": -1.0 }, "geometry": { "type": "Point", "coordinates": [ 17.083212, -22.571419899999967, 0.0 ] } },
{ "type": "Feature", "properties": { "OID_": 0, "Name": "Mozart Street & Hosea Kutako Drive", "FolderPath": "Untitled layer", "SymbolID": 0, "AltMode": -1, "Base": 0.0, "Snippet": null, "PopupInfo": null, "HasLabel": -1, "LabelID": 0, "NEAR_FID": 250, "NEAR_DIST": 134.80244144700001 }, "geometry": { "type": "Point", "coordinates": [ 17.07864120000005, -22.567866399999957, 0.0 ] } },
{ "type": "Feature", "properties": { "OID_": 0, "Name": "Dr Frans Indongo Street & Mandume Ndemufayo Road", "FolderPath": "Untitled layer", "SymbolID": 0, "AltMode": -1, "Base": 0.0, "Snippet": null, "PopupInfo": null, "HasLabel": -1, "LabelID": 0, "NEAR_FID": 227, "NEAR_DIST": 99.862615270099994 }, "geometry": { "type": "Point", "coordinates": [ 17.080958600000031, -22.565389499999981, 0.0 ] } },
{ "type": "Feature", "properties": { "OID_": 0, "Name": "John Meinert Street & Mandume Ndemufayo Road", "FolderPath": "Untitled layer", "SymbolID": 0, "AltMode": -1, "Base": 0.0, "Snippet": null, "PopupInfo": null, "HasLabel": -1, "LabelID": 0, "NEAR_FID": 227, "NEAR_DIST": 362.04584588900002 }, "geometry": { "type": "Point", "coordinates": [ 17.081151700000078, -22.562159599999973, 0.0 ] } },
{ "type": "Feature", "properties": { "OID_": 0, "Name": "Robert Mugabe Road & Sam Nujoma Drive", "FolderPath": "Untitled layer", "SymbolID": 0, "AltMode": -1, "Base": 0.0, "Snippet": null, "PopupInfo": null, "HasLabel": -1, "LabelID": 0, "NEAR_FID": -1, "NEAR_DIST": -1.0 }, "geometry": { "type": "Point", "coordinates": [ 17.088145900000029, -22.571145399999978, 0.0 ] } },
{ "type": "Feature", "properties": { "OID_": 0, "Name": "Synnman Circle", "FolderPath": "Untitled layer", "SymbolID": 0, "AltMode": -1, "Base": 0.0, "Snippet": null, "PopupInfo": null, "HasLabel": -1, "LabelID": 0, "NEAR_FID": 232, "NEAR_DIST": 88.925457901800002 }, "geometry": { "type": "Point", "coordinates": [ 17.085020500000041, -22.575282499999958, 0.0 ] } },
{ "type": "Feature", "properties": { "OID_": 0, "Name": "Moses Garoeb Street & Hedrik Witbooi Drive", "FolderPath": "Untitled layer", "SymbolID": 0, "AltMode": -1, "Base": 0.0, "Snippet": null, "PopupInfo": null, "HasLabel": -1, "LabelID": 0, "NEAR_FID": 247, "NEAR_DIST": 366.77335065699998 }, "geometry": { "type": "Point", "coordinates": [ 17.060115200000041, -22.561320199999955, 0.0 ] } },
{ "type": "Feature", "properties": { "OID_": 0, "Name": "Hydra Street & Bach Street", "FolderPath": "Untitled layer", "SymbolID": 0, "AltMode": -1, "Base": 0.0, "Snippet": null, "PopupInfo": null, "HasLabel": -1, "LabelID": 0, "NEAR_FID": 252, "NEAR_DIST": 435.12016663700001 }, "geometry": { "type": "Point", "coordinates": [ 17.067008300000055, -22.564257599999962, 0.0 ] } },
{ "type": "Feature", "properties": { "OID_": 0, "Name": "John Meinert Street & Hosea Kutako Drive", "FolderPath": "Untitled layer", "SymbolID": 0, "AltMode": -1, "Base": 0.0, "Snippet": null, "PopupInfo": null, "HasLabel": -1, "LabelID": 0, "NEAR_FID": 227, "NEAR_DIST": 328.58218594900001 }, "geometry": { "type": "Point", "coordinates": [ 17.079539600000032, -22.562312599999927, 0.0 ] } },
{ "type": "Feature", "properties": { "OID_": 0, "Name": "Dr Frans Indongo Street & Hosea Kutako Drive", "FolderPath": "Untitled layer", "SymbolID": 0, "AltMode": -1, "Base": 0.0, "Snippet": null, "PopupInfo": null, "HasLabel": -1, "LabelID": 0, "NEAR_FID": 227, "NEAR_DIST": 120.41771017000001 }, "geometry": { "type": "Point", "coordinates": [ 17.078831500000035, -22.565324499999974, 0.0 ] } },
{ "type": "Feature", "properties": { "OID_": 0, "Name": "Banhorf Street & Independence Avenue", "FolderPath": "Untitled layer", "SymbolID": 0, "AltMode": -1, "Base": 0.0, "Snippet": null, "PopupInfo": null, "HasLabel": -1, "LabelID": 0, "NEAR_FID": -1, "NEAR_DIST": -1.0 }, "geometry": { "type": "Point", "coordinates": [ 17.08404070000006, -22.560562299999958, 0.0 ] } },
{ "type": "Feature", "properties": { "OID_": 0, "Name": "Robert Mugabe Road & John Meinert Street", "FolderPath": "Untitled layer", "SymbolID": 0, "AltMode": -1, "Base": 0.0, "Snippet": null, "PopupInfo": null, "HasLabel": -1, "LabelID": 0, "NEAR_FID": -1, "NEAR_DIST": -1.0 }, "geometry": { "type": "Point", "coordinates": [ 17.086079200000029, -22.562008899999967, 0.0 ] } },
{ "type": "Feature", "properties": { "OID_": 0, "Name": "Werner Street & Dr Frans Indongo Street", "FolderPath": "Untitled layer", "SymbolID": 0, "AltMode": -1, "Base": 0.0, "Snippet": null, "PopupInfo": null, "HasLabel": -1, "LabelID": 0, "NEAR_FID": 227, "NEAR_DIST": 319.82919947300002 }, "geometry": { "type": "Point", "coordinates": [ 17.083096600000033, -22.564988899999946, 0.0 ] } },
{ "type": "Feature", "properties": { "OID_": 0, "Name": "John Meinert Street & Werner Street", "FolderPath": "Untitled layer", "SymbolID": 0, "AltMode": -1, "Base": 0.0, "Snippet": null, "PopupInfo": null, "HasLabel": -1, "LabelID": 0, "NEAR_FID": 227, "NEAR_DIST": 465.73839744000003 }, "geometry": { "type": "Point", "coordinates": [ 17.083182400000055, -22.562257299999942, 0.0 ] } },
{ "type": "Feature", "properties": { "OID_": 0, "Name": "Independence Avenue & John Meinert Drive", "FolderPath": "Untitled layer", "SymbolID": 0, "AltMode": -1, "Base": 0.0, "Snippet": null, "PopupInfo": null, "HasLabel": -1, "LabelID": 0, "NEAR_FID": -1, "NEAR_DIST": -1.0 }, "geometry": { "type": "Point", "coordinates": [ 17.084190900000067, -22.562257299999942, 0.0 ] } },
{ "type": "Feature", "properties": { "OID_": 0, "Name": "Fidel Castro Street & Mandume Ndemufayo Road", "FolderPath": "Untitled layer", "SymbolID": 0, "AltMode": -1, "Base": 0.0, "Snippet": null, "PopupInfo": null, "HasLabel": -1, "LabelID": 0, "NEAR_FID": 228, "NEAR_DIST": 355.07631745899999 }, "geometry": { "type": "Point", "coordinates": [ 17.081959300000051, -22.568419699999936, 0.0 ] } },
{ "type": "Feature", "properties": { "OID_": 0, "Name": "Fidel Castro Street & Independence Avenue", "FolderPath": "Untitled layer", "SymbolID": 0, "AltMode": -1, "Base": 0.0, "Snippet": null, "PopupInfo": null, "HasLabel": -1, "LabelID": 0, "NEAR_FID": -1, "NEAR_DIST": -1.0 }, "geometry": { "type": "Point", "coordinates": [ 17.084609300000068, -22.568073, 0.0 ] } },
{ "type": "Feature", "properties": { "OID_": 0, "Name": "Independence Avenue & Sam Nujoma Road", "FolderPath": "Untitled layer", "SymbolID": 0, "AltMode": -1, "Base": 0.0, "Snippet": null, "PopupInfo": null, "HasLabel": -1, "LabelID": 0, "NEAR_FID": -1, "NEAR_DIST": -1.0 }, "geometry": { "type": "Point", "coordinates": [ 17.085124300000075, -22.570906399999956, 0.0 ] } },
{ "type": "Feature", "properties": { "OID_": 0, "Name": "Ooievaar Street & Johann Albrecht Street", "FolderPath": "Untitled layer", "SymbolID": 0, "AltMode": -1, "Base": 0.0, "Snippet": null, "PopupInfo": null, "HasLabel": -1, "LabelID": 0, "NEAR_FID": 254, "NEAR_DIST": 199.69099516099999 }, "geometry": { "type": "Point", "coordinates": [ 17.07421480000005, -22.551971, 0.0 ] } },
{ "type": "Feature", "properties": { "OID_": 0, "Name": "Johann Albrecht Street", "FolderPath": "Untitled layer", "SymbolID": 0, "AltMode": -1, "Base": 0.0, "Snippet": null, "PopupInfo": null, "HasLabel": -1, "LabelID": 0, "NEAR_FID": 255, "NEAR_DIST": 314.89528645600001 }, "geometry": { "type": "Point", "coordinates": [ 17.070520200000033, -22.544471299999941, 0.0 ] } },
{ "type": "Feature", "properties": { "OID_": 0, "Name": "Mahatma Gandhi Street & Hosea Kutako Drive", "FolderPath": "Untitled layer", "SymbolID": 0, "AltMode": -1, "Base": 0.0, "Snippet": null, "PopupInfo": null, "HasLabel": -1, "LabelID": 0, "NEAR_FID": 255, "NEAR_DIST": 159.527173205 }, "geometry": { "type": "Point", "coordinates": [ 17.073824700000046, -22.542856099999938, 0.0 ] } },
{ "type": "Feature", "properties": { "OID_": 0, "Name": "Hosea Kutako & Independence Avenue", "FolderPath": "Untitled layer", "SymbolID": 0, "AltMode": -1, "Base": 0.0, "Snippet": null, "PopupInfo": null, "HasLabel": -1, "LabelID": 0, "NEAR_FID": -1, "NEAR_DIST": -1.0 }, "geometry": { "type": "Point", "coordinates": [ 17.074723300000073, -22.538629, 0.0 ] } },
{ "type": "Feature", "properties": { "OID_": 0, "Name": "Florence Nightigale Road & Hans Dietrich Genscher Street", "FolderPath": "Untitled layer", "SymbolID": 0, "AltMode": -1, "Base": 0.0, "Snippet": null, "PopupInfo": null, "HasLabel": -1, "LabelID": 0, "NEAR_FID": 193, "NEAR_DIST": 34.380961154399998 }, "geometry": { "type": "Point", "coordinates": [ 17.061416100000031, -22.550833099999977, 0.0 ] } },
{ "type": "Feature", "properties": { "OID_": 0, "Name": "Dortmund Street & New Castle Street", "FolderPath": "Untitled layer", "SymbolID": 0, "AltMode": -1, "Base": 0.0, "Snippet": null, "PopupInfo": null, "HasLabel": -1, "LabelID": 0, "NEAR_FID": -1, "NEAR_DIST": -1.0 }, "geometry": { "type": "Point", "coordinates": [ 17.075394500000073, -22.526473899999928, 0.0 ] } },
{ "type": "Feature", "properties": { "OID_": 0, "Name": "Hans Dietrich Genscher Street & Independence Avenue", "FolderPath": "Untitled layer", "SymbolID": 0, "AltMode": -1, "Base": 0.0, "Snippet": null, "PopupInfo": null, "HasLabel": -1, "LabelID": 0, "NEAR_FID": -1, "NEAR_DIST": -1.0 }, "geometry": { "type": "Point", "coordinates": [ 17.063960800000075, -22.532544899999948, 0.0 ] } },
{ "type": "Feature", "properties": { "OID_": 0, "Name": "Mugunda Street & Shanghai Street", "FolderPath": "Untitled layer", "SymbolID": 0, "AltMode": -1, "Base": 0.0, "Snippet": null, "PopupInfo": null, "HasLabel": -1, "LabelID": 0, "NEAR_FID": 200, "NEAR_DIST": 304.500058201 }, "geometry": { "type": "Point", "coordinates": [ 17.051161300000047, -22.532179799999938, 0.0 ] } },
{ "type": "Feature", "properties": { "OID_": 0, "Name": "Mahatma Gandhi Street & Independence Avenue", "FolderPath": "Untitled layer", "SymbolID": 0, "AltMode": -1, "Base": 0.0, "Snippet": null, "PopupInfo": null, "HasLabel": -1, "LabelID": 0, "NEAR_FID": 202, "NEAR_DIST": 363.91415116600001 }, "geometry": { "type": "Point", "coordinates": [ 17.05802790000007, -22.529068199999983, 0.0 ] } },
{ "type": "Feature", "properties": { "OID_": 0, "Name": "Shanghai Street & Independence Avenue", "FolderPath": "Untitled layer", "SymbolID": 0, "AltMode": -1, "Base": 0.0, "Snippet": null, "PopupInfo": null, "HasLabel": -1, "LabelID": 0, "NEAR_FID": 203, "NEAR_DIST": 41.743913697399996 }, "geometry": { "type": "Point", "coordinates": [ 17.054562500000031, -22.525728399999934, 0.0 ] } },
{ "type": "Feature", "properties": { "OID_": 0, "Name": "Independence Avenue & Cleemens Kapuuo Street", "FolderPath": "Untitled layer", "SymbolID": 0, "AltMode": -1, "Base": 0.0, "Snippet": null, "PopupInfo": null, "HasLabel": -1, "LabelID": 0, "NEAR_FID": 196, "NEAR_DIST": 102.638751318 }, "geometry": { "type": "Point", "coordinates": [ 17.051686, -22.523250799999971, 0.0 ] } },
{ "type": "Feature", "properties": { "OID_": 0, "Name": "Soweto Market", "FolderPath": "Untitled layer", "SymbolID": 0, "AltMode": -1, "Base": 0.0, "Snippet": null, "PopupInfo": null, "HasLabel": -1, "LabelID": 0, "NEAR_FID": 84, "NEAR_DIST": 257.676343132 }, "geometry": { "type": "Point", "coordinates": [ 17.04437960000007, -22.520356899999967, 0.0 ] } },
{ "type": "Feature", "properties": { "OID_": 0, "Name": "Claudius Kondovanzu Street", "FolderPath": "Untitled layer", "SymbolID": 0, "AltMode": -1, "Base": 0.0, "Snippet": null, "PopupInfo": null, "HasLabel": -1, "LabelID": 0, "NEAR_FID": 86, "NEAR_DIST": 113.752858446 }, "geometry": { "type": "Point", "coordinates": [ 17.044942200000037, -22.514659299999948, 0.0 ] } },
{ "type": "Feature", "properties": { "OID_": 0, "Name": "Sam Nujoma Stadium", "FolderPath": "Untitled layer", "SymbolID": 0, "AltMode": -1, "Base": 0.0, "Snippet": null, "PopupInfo": null, "HasLabel": -1, "LabelID": 0, "NEAR_FID": 226, "NEAR_DIST": 367.49876754399997 }, "geometry": { "type": "Point", "coordinates": [ 17.060026900000025, -22.514165099999957, 0.0 ] } },
{ "type": "Feature", "properties": { "OID_": 0, "Name": "Monte Christo Road", "FolderPath": "Untitled layer", "SymbolID": 0, "AltMode": -1, "Base": 0.0, "Snippet": null, "PopupInfo": null, "HasLabel": -1, "LabelID": 0, "NEAR_FID": 226, "NEAR_DIST": 254.66347757 }, "geometry": { "type": "Point", "coordinates": [ 17.06007610000006, -22.512064, 0.0 ] } },
{ "type": "Feature", "properties": { "OID_": 0, "Name": "Wilibard Kapuene Street & Hans Dietrich Genscher Street", "FolderPath": "Untitled layer", "SymbolID": 0, "AltMode": -1, "Base": 0.0, "Snippet": null, "PopupInfo": null, "HasLabel": -1, "LabelID": 0, "NEAR_FID": 215, "NEAR_DIST": 265.11609358200002 }, "geometry": { "type": "Point", "coordinates": [ 17.067190200000027, -22.525005199999953, 0.0 ] } },
{ "type": "Feature", "properties": { "OID_": 0, "Name": "Begonia Street & Florence Nightigale Road", "FolderPath": "Untitled layer", "SymbolID": 0, "AltMode": -1, "Base": 0.0, "Snippet": null, "PopupInfo": null, "HasLabel": -1, "LabelID": 0, "NEAR_FID": 194, "NEAR_DIST": 234.05830937900001 }, "geometry": { "type": "Point", "coordinates": [ 17.050689100000056, -22.542097799999965, 0.0 ] } },
{ "type": "Feature", "properties": { "OID_": 0, "Name": "Andrew Klopper Street & Moses Garoeb Street", "FolderPath": "Untitled layer", "SymbolID": 0, "AltMode": -1, "Base": 0.0, "Snippet": null, "PopupInfo": null, "HasLabel": -1, "LabelID": 0, "NEAR_FID": 191, "NEAR_DIST": 241.24606751300001 }, "geometry": { "type": "Point", "coordinates": [ 17.052912500000048, -22.55527509999996, 0.0 ] } },
{ "type": "Feature", "properties": { "OID_": 0, "Name": "Rooivalk StreetÂ  & Moses Garoeb Street", "FolderPath": "Untitled layer", "SymbolID": 0, "AltMode": -1, "Base": 0.0, "Snippet": null, "PopupInfo": null, "HasLabel": -1, "LabelID": 0, "NEAR_FID": 185, "NEAR_DIST": 341.14460666399998 }, "geometry": { "type": "Point", "coordinates": [ 17.048667400000056, -22.550235, 0.0 ] } },
{ "type": "Feature", "properties": { "OID_": 0, "Name": "Visarend Street & Moses Garoeb Street", "FolderPath": "Untitled layer", "SymbolID": 0, "AltMode": -1, "Base": 0.0, "Snippet": null, "PopupInfo": null, "HasLabel": -1, "LabelID": 0, "NEAR_FID": 184, "NEAR_DIST": 114.826853253 }, "geometry": { "type": "Point", "coordinates": [ 17.040730600000074, -22.547292199999958, 0.0 ] } },
{ "type": "Feature", "properties": { "OID_": 0, "Name": "Otjomuise Road & Moses Garoeb Street", "FolderPath": "Untitled layer", "SymbolID": 0, "AltMode": -1, "Base": 0.0, "Snippet": null, "PopupInfo": null, "HasLabel": -1, "LabelID": 0, "NEAR_FID": 179, "NEAR_DIST": 405.338000448 }, "geometry": { "type": "Point", "coordinates": [ 17.035162400000047, -22.545568, 0.0 ] } },
{ "type": "Feature", "properties": { "OID_": 0, "Name": "Moses Garoeb Streets & Bonn Street", "FolderPath": "Untitled layer", "SymbolID": 0, "AltMode": -1, "Base": 0.0, "Snippet": null, "PopupInfo": null, "HasLabel": -1, "LabelID": 0, "NEAR_FID": 192, "NEAR_DIST": 10.4032536465 }, "geometry": { "type": "Point", "coordinates": [ 17.027448400000026, -22.546212099999934, 0.0 ] } },
{ "type": "Feature", "properties": { "OID_": 0, "Name": "Bonn Street & Otjomuise Road", "FolderPath": "Untitled layer", "SymbolID": 0, "AltMode": -1, "Base": 0.0, "Snippet": null, "PopupInfo": null, "HasLabel": -1, "LabelID": 0, "NEAR_FID": -1, "NEAR_DIST": -1.0 }, "geometry": { "type": "Point", "coordinates": [ 17.035921, -22.554760199999976, 0.0 ] } },
{ "type": "Feature", "properties": { "OID_": 0, "Name": "Ramatex 4 Way", "FolderPath": "Untitled layer", "SymbolID": 0, "AltMode": -1, "Base": 0.0, "Snippet": null, "PopupInfo": null, "HasLabel": -1, "LabelID": 0, "NEAR_FID": 180, "NEAR_DIST": 203.35574707500001 }, "geometry": { "type": "Point", "coordinates": [ 17.033146900000077, -22.539467799999954, 0.0 ] } },
{ "type": "Feature", "properties": { "OID_": 0, "Name": "Opoganda Cemetary", "FolderPath": "Untitled layer", "SymbolID": 0, "AltMode": -1, "Base": 0.0, "Snippet": null, "PopupInfo": null, "HasLabel": -1, "LabelID": 0, "NEAR_FID": 182, "NEAR_DIST": 459.46880615700002 }, "geometry": { "type": "Point", "coordinates": [ 17.034445100000028, -22.532552299999963, 0.0 ] } },
{ "type": "Feature", "properties": { "OID_": 0, "Name": "Eveline Street & Otjomuise Road", "FolderPath": "Untitled layer", "SymbolID": 0, "AltMode": -1, "Base": 0.0, "Snippet": null, "PopupInfo": null, "HasLabel": -1, "LabelID": 0, "NEAR_FID": 59, "NEAR_DIST": 267.22290921400003 }, "geometry": { "type": "Point", "coordinates": [ 17.02957420000007, -22.524416099999939, 0.0 ] } },
{ "type": "Feature", "properties": { "OID_": 0, "Name": "Wanaheda Police Station", "FolderPath": "Untitled layer", "SymbolID": 0, "AltMode": -1, "Base": 0.0, "Snippet": null, "PopupInfo": null, "HasLabel": -1, "LabelID": 0, "NEAR_FID": 72, "NEAR_DIST": 188.83999111099999 }, "geometry": { "type": "Point", "coordinates": [ 17.035997800000075, -22.522077199999956, 0.0 ] } },
{ "type": "Feature", "properties": { "OID_": 0, "Name": "Florence Nightingale Road & Mugunda Street", "FolderPath": "Untitled layer", "SymbolID": 0, "AltMode": -1, "Base": 0.0, "Snippet": null, "PopupInfo": null, "HasLabel": -1, "LabelID": 0, "NEAR_FID": 195, "NEAR_DIST": 30.939705918200001 }, "geometry": { "type": "Point", "coordinates": [ 17.043261200000074, -22.529004499999928, 0.0 ] } },
{ "type": "Feature", "properties": { "OID_": 0, "Name": "Mountain Dam Road & Eveline Street", "FolderPath": "Untitled layer", "SymbolID": 0, "AltMode": -1, "Base": 0.0, "Snippet": null, "PopupInfo": null, "HasLabel": -1, "LabelID": 0, "NEAR_FID": 61, "NEAR_DIST": 26.210107216899999 }, "geometry": { "type": "Point", "coordinates": [ 17.022041800000068, -22.519209399999966, 0.0 ] } },
{ "type": "Feature", "properties": { "OID_": 0, "Name": "Matshitshi Street & Green Mountain Road", "FolderPath": "Untitled layer", "SymbolID": 0, "AltMode": -1, "Base": 0.0, "Snippet": null, "PopupInfo": null, "HasLabel": -1, "LabelID": 0, "NEAR_FID": 34, "NEAR_DIST": 8.4946194426100003 }, "geometry": { "type": "Point", "coordinates": [ 17.015363100000059, -22.51584639999993, 0.0 ] } },
{ "type": "Feature", "properties": { "OID_": 0, "Name": "Havana 4 Way", "FolderPath": "Untitled layer", "SymbolID": 0, "AltMode": -1, "Base": 0.0, "Snippet": null, "PopupInfo": null, "HasLabel": -1, "LabelID": 0, "NEAR_FID": 12, "NEAR_DIST": 24.9813981456 }, "geometry": { "type": "Point", "coordinates": [ 17.021271200000058, -22.510465699999941, 0.0 ] } },
{ "type": "Feature", "properties": { "OID_": 0, "Name": "Havana 3 Way", "FolderPath": "Untitled layer", "SymbolID": 0, "AltMode": -1, "Base": 0.0, "Snippet": null, "PopupInfo": null, "HasLabel": -1, "LabelID": 0, "NEAR_FID": 11, "NEAR_DIST": 33.602305821100003 }, "geometry": { "type": "Point", "coordinates": [ 17.028219100000058, -22.511583099999939, 0.0 ] } },
{ "type": "Feature", "properties": { "OID_": 0, "Name": "Claudius Kondovanzu Street & Otjomuise Road", "FolderPath": "Untitled layer", "SymbolID": 0, "AltMode": -1, "Base": 0.0, "Snippet": null, "PopupInfo": null, "HasLabel": -1, "LabelID": 0, "NEAR_FID": 60, "NEAR_DIST": 160.604645135 }, "geometry": { "type": "Point", "coordinates": [ 17.028615600000023, -22.514615899999967, 0.0 ] } },
{ "type": "Feature", "properties": { "OID_": 0, "Name": "Stockholm Street & Dusseldorf Street", "FolderPath": "Untitled layer", "SymbolID": 0, "AltMode": -1, "Base": 0.0, "Snippet": null, "PopupInfo": null, "HasLabel": -1, "LabelID": 0, "NEAR_FID": 131, "NEAR_DIST": 112.156715022 }, "geometry": { "type": "Point", "coordinates": [ 17.016955300000063, -22.557793799999956, 0.0 ] } },
{ "type": "Feature", "properties": { "OID_": 0, "Name": "Daan Viljoen Road", "FolderPath": "Untitled layer", "SymbolID": 0, "AltMode": -1, "Base": 0.0, "Snippet": null, "PopupInfo": null, "HasLabel": -1, "LabelID": 0, "NEAR_FID": 153, "NEAR_DIST": 279.456647304 }, "geometry": { "type": "Point", "coordinates": [ 17.005187900000067, -22.563647699999933, 0.0 ] } },
{ "type": "Feature", "properties": { "OID_": 0, "Name": "Dusseldorf Street & Daan Viljoen Road", "FolderPath": "Untitled layer", "SymbolID": 0, "AltMode": -1, "Base": 0.0, "Snippet": null, "PopupInfo": null, "HasLabel": -1, "LabelID": 0, "NEAR_FID": 156, "NEAR_DIST": 451.14180560199998 }, "geometry": { "type": "Point", "coordinates": [ 17.01489470000007, -22.564799599999958, 0.0 ] } },
{ "type": "Feature", "properties": { "OID_": 0, "Name": "Moses Garoeb Street & Dusself Street", "FolderPath": "Untitled layer", "SymbolID": 0, "AltMode": -1, "Base": 0.0, "Snippet": null, "PopupInfo": null, "HasLabel": -1, "LabelID": 0, "NEAR_FID": 141, "NEAR_DIST": 239.51322102899999 }, "geometry": { "type": "Point", "coordinates": [ 17.016976700000043, -22.548130599999979, 0.0 ] } },
{ "type": "Feature", "properties": { "OID_": 0, "Name": "Beijing Street & Otjomuise Road", "FolderPath": "Untitled layer", "SymbolID": 0, "AltMode": -1, "Base": 0.0, "Snippet": null, "PopupInfo": null, "HasLabel": -1, "LabelID": 0, "NEAR_FID": 136, "NEAR_DIST": 188.32998073799999 }, "geometry": { "type": "Point", "coordinates": [ 17.035253300000022, -22.550215, 0.0 ] } },
{ "type": "Feature", "properties": { "OID_": 0, "Name": "Otjomuise Shop", "FolderPath": "Untitled layer", "SymbolID": 0, "AltMode": -1, "Base": 0.0, "Snippet": null, "PopupInfo": null, "HasLabel": -1, "LabelID": 0, "NEAR_FID": 150, "NEAR_DIST": 36.232916731300001 }, "geometry": { "type": "Point", "coordinates": [ 17.02837610000006, -22.547883399999932, 0.0 ] } },
{ "type": "Feature", "properties": { "OID_": 0, "Name": "Bonn Street & Beijing Street", "FolderPath": "Untitled layer", "SymbolID": 0, "AltMode": -1, "Base": 0.0, "Snippet": null, "PopupInfo": null, "HasLabel": -1, "LabelID": 0, "NEAR_FID": 138, "NEAR_DIST": 31.620242824399998 }, "geometry": { "type": "Point", "coordinates": [ 17.027786, -22.54959759999997, 0.0 ] } },
{ "type": "Feature", "properties": { "OID_": 0, "Name": "Ghazi Street & Dusseldorf Street", "FolderPath": "Untitled layer", "SymbolID": 0, "AltMode": -1, "Base": 0.0, "Snippet": null, "PopupInfo": null, "HasLabel": -1, "LabelID": 0, "NEAR_FID": 140, "NEAR_DIST": 301.81231750400002 }, "geometry": { "type": "Point", "coordinates": [ 17.018569900000045, -22.553897799999959, 0.0 ] } },
{ "type": "Feature", "properties": { "OID_": 0, "Name": "Moses Garoeb Street & Matshitshi Street", "FolderPath": "Untitled layer", "SymbolID": 0, "AltMode": -1, "Base": 0.0, "Snippet": null, "PopupInfo": null, "HasLabel": -1, "LabelID": 0, "NEAR_FID": 122, "NEAR_DIST": 174.97726815799999 }, "geometry": { "type": "Point", "coordinates": [ 17.009906200000046, -22.550805799999978, 0.0 ] } },
{ "type": "Feature", "properties": { "OID_": 0, "Name": "Ceaser Street & Claudius Kondovanzu Street", "FolderPath": "Untitled layer", "SymbolID": 0, "AltMode": -1, "Base": 0.0, "Snippet": null, "PopupInfo": null, "HasLabel": -1, "LabelID": 0, "NEAR_FID": 85, "NEAR_DIST": 130.59792415499999 }, "geometry": { "type": "Point", "coordinates": [ 17.040701700000056, -22.514473099999975, 0.0 ] } },
{ "type": "Feature", "properties": { "OID_": 0, "Name": "Ceaser Street & Monte Christo Road", "FolderPath": "Untitled layer", "SymbolID": 0, "AltMode": -1, "Base": 0.0, "Snippet": null, "PopupInfo": null, "HasLabel": -1, "LabelID": 0, "NEAR_FID": 6, "NEAR_DIST": 15.318532750199999 }, "geometry": { "type": "Point", "coordinates": [ 17.041195200000061, -22.510652399999969, 0.0 ] } },
{ "type": "Feature", "properties": { "OID_": 0, "Name": "Abraham Mashengo Street & Claudius Kondovanzu Street", "FolderPath": "Untitled layer", "SymbolID": 0, "AltMode": -1, "Base": 0.0, "Snippet": null, "PopupInfo": null, "HasLabel": -1, "LabelID": 0, "NEAR_FID": 7, "NEAR_DIST": 268.50601140200001 }, "geometry": { "type": "Point", "coordinates": [ 17.048254800000052, -22.514815099999964, 0.0 ] } },
{ "type": "Feature", "properties": { "OID_": 0, "Name": "Abraham Mashengo Street & Monte Christo Road", "FolderPath": "Untitled layer", "SymbolID": 0, "AltMode": -1, "Base": 0.0, "Snippet": null, "PopupInfo": null, "HasLabel": -1, "LabelID": 0, "NEAR_FID": 8, "NEAR_DIST": 23.985591877600001 }, "geometry": { "type": "Point", "coordinates": [ 17.048383600000022, -22.512119299999938, 0.0 ] } },
{ "type": "Feature", "properties": { "OID_": 0, "Name": "Omuvapu Street & Omugwindi Street", "FolderPath": "Untitled layer", "SymbolID": 0, "AltMode": -1, "Base": 0.0, "Snippet": null, "PopupInfo": null, "HasLabel": -1, "LabelID": 0, "NEAR_FID": 88, "NEAR_DIST": 161.881939894 }, "geometry": { "type": "Point", "coordinates": [ 17.046259200000065, -22.507877199999939, 0.0 ] } },
{ "type": "Feature", "properties": { "OID_": 0, "Name": "Omulunga Street & Monte Christo Road", "FolderPath": "Untitled layer", "SymbolID": 0, "AltMode": -1, "Base": 0.0, "Snippet": null, "PopupInfo": null, "HasLabel": -1, "LabelID": 0, "NEAR_FID": 109, "NEAR_DIST": 67.303755713100003 }, "geometry": { "type": "Point", "coordinates": [ 17.03779650000007, -22.508675099999948, 0.0 ] } },
{ "type": "Feature", "properties": { "OID_": 0, "Name": "Etwetwe Street & Omuvapu Street", "FolderPath": "Untitled layer", "SymbolID": 0, "AltMode": -1, "Base": 0.0, "Snippet": null, "PopupInfo": null, "HasLabel": -1, "LabelID": 0, "NEAR_FID": 97, "NEAR_DIST": 28.5528310276 }, "geometry": { "type": "Point", "coordinates": [ 17.046074800000042, -22.50660739999995, 0.0 ] } },
{ "type": "Feature", "properties": { "OID_": 0, "Name": "Ongava Street & Etwetwe Street", "FolderPath": "Untitled layer", "SymbolID": 0, "AltMode": -1, "Base": 0.0, "Snippet": null, "PopupInfo": null, "HasLabel": -1, "LabelID": 0, "NEAR_FID": 87, "NEAR_DIST": 168.149003201 }, "geometry": { "type": "Point", "coordinates": [ 17.051138800000047, -22.507935599999939, 0.0 ] } },
{ "type": "Feature", "properties": { "OID_": 0, "Name": "Omuvapu Street & Julius Nyerere Street", "FolderPath": "Untitled layer", "SymbolID": 0, "AltMode": -1, "Base": 0.0, "Snippet": null, "PopupInfo": null, "HasLabel": -1, "LabelID": 0, "NEAR_FID": 107, "NEAR_DIST": 325.75630343 }, "geometry": { "type": "Point", "coordinates": [ 17.051117900000065, -22.494033499999944, 0.0 ] } },
{ "type": "Feature", "properties": { "OID_": 0, "Name": "Okahandja Park Market", "FolderPath": "Untitled layer", "SymbolID": 0, "AltMode": -1, "Base": 0.0, "Snippet": null, "PopupInfo": null, "HasLabel": -1, "LabelID": 0, "NEAR_FID": 106, "NEAR_DIST": 0.0 }, "geometry": { "type": "Point", "coordinates": [ 17.057958100000064, -22.495861099999956, 0.0 ] } },
{ "type": "Feature", "properties": { "OID_": 0, "Name": "Ongava Street", "FolderPath": "Untitled layer", "SymbolID": 0, "AltMode": -1, "Base": 0.0, "Snippet": null, "PopupInfo": null, "HasLabel": -1, "LabelID": 0, "NEAR_FID": 108, "NEAR_DIST": 303.02233784499998 }, "geometry": { "type": "Point", "coordinates": [ 17.056265500000052, -22.498465299999964, 0.0 ] } },
{ "type": "Feature", "properties": { "OID_": 0, "Name": "Iyeeta Market", "FolderPath": "Untitled layer", "SymbolID": 0, "AltMode": -1, "Base": 0.0, "Snippet": null, "PopupInfo": null, "HasLabel": -1, "LabelID": 0, "NEAR_FID": 104, "NEAR_DIST": 9.0043109519800009 }, "geometry": { "type": "Point", "coordinates": [ 17.058164500000032, -22.502271499999949, 0.0 ] } },
{ "type": "Feature", "properties": { "OID_": 0, "Name": "Onguya Street", "FolderPath": "Untitled layer", "SymbolID": 0, "AltMode": -1, "Base": 0.0, "Snippet": null, "PopupInfo": null, "HasLabel": -1, "LabelID": 0, "NEAR_FID": 102, "NEAR_DIST": 0.0 }, "geometry": { "type": "Point", "coordinates": [ 17.059660800000074, -22.505335099999968, 0.0 ] } },
{ "type": "Feature", "properties": { "OID_": 0, "Name": "Lafrenz Total", "FolderPath": "Untitled layer", "SymbolID": 0, "AltMode": -1, "Base": 0.0, "Snippet": null, "PopupInfo": null, "HasLabel": -1, "LabelID": 0, "NEAR_FID": 103, "NEAR_DIST": 298.15142892099999 }, "geometry": { "type": "Point", "coordinates": [ 17.060987600000033, -22.508824, 0.0 ] } },
{ "type": "Feature", "properties": { "OID_": 0, "Name": "Ekundi Street", "FolderPath": "Untitled layer", "SymbolID": 0, "AltMode": -1, "Base": 0.0, "Snippet": null, "PopupInfo": null, "HasLabel": -1, "LabelID": 0, "NEAR_FID": 103, "NEAR_DIST": 161.55581872900001 }, "geometry": { "type": "Point", "coordinates": [ 17.059088600000052, -22.508526699999948, 0.0 ] } },
{ "type": "Feature", "properties": { "OID_": 0, "Name": "Herford Street & Onguya Street", "FolderPath": "Untitled layer", "SymbolID": 0, "AltMode": -1, "Base": 0.0, "Snippet": null, "PopupInfo": null, "HasLabel": -1, "LabelID": 0, "NEAR_FID": 102, "NEAR_DIST": 219.58621355599999 }, "geometry": { "type": "Point", "coordinates": [ 17.061770800000033, -22.505632499999933, 0.0 ] } },
{ "type": "Feature", "properties": { "OID_": 0, "Name": "Ombili", "FolderPath": "Untitled layer", "SymbolID": 0, "AltMode": -1, "Base": 0.0, "Snippet": null, "PopupInfo": null, "HasLabel": -1, "LabelID": 0, "NEAR_FID": 96, "NEAR_DIST": 313.992427744 }, "geometry": { "type": "Point", "coordinates": [ 17.046434600000055, -22.503403799999944, 0.0 ] } },
{ "type": "Feature", "properties": { "OID_": 0, "Name": "Sam Nujoma Street & Brug Street", "FolderPath": "Untitled layer", "SymbolID": 0, "AltMode": -1, "Base": 0.0, "Snippet": null, "PopupInfo": null, "HasLabel": -1, "LabelID": 0, "NEAR_FID": -1, "NEAR_DIST": -1.0 }, "geometry": { "type": "Point", "coordinates": [ 17.096971200000041, -22.573867699999937, 0.0 ] } },
{ "type": "Feature", "properties": { "OID_": 0, "Name": "Nelson Mandela Avenue & Sam Nujoma Drive", "FolderPath": "Untitled layer", "SymbolID": 0, "AltMode": -1, "Base": 0.0, "Snippet": null, "PopupInfo": null, "HasLabel": -1, "LabelID": 0, "NEAR_FID": -1, "NEAR_DIST": -1.0 }, "geometry": { "type": "Point", "coordinates": [ 17.103344600000071, -22.572088599999972, 0.0 ] } },
{ "type": "Feature", "properties": { "OID_": 0, "Name": "Dr Kenneth Kauda Street", "FolderPath": "Untitled layer", "SymbolID": 0, "AltMode": -1, "Base": 0.0, "Snippet": null, "PopupInfo": null, "HasLabel": -1, "LabelID": 0, "NEAR_FID": 268, "NEAR_DIST": 403.76976832000003 }, "geometry": { "type": "Point", "coordinates": [ 17.094449300000065, -22.559711799999945, 0.0 ] } },
{ "type": "Feature", "properties": { "OID_": 0, "Name": "OK Food Independence", "FolderPath": "Untitled layer", "SymbolID": 0, "AltMode": -1, "Base": 0.0, "Snippet": null, "PopupInfo": null, "HasLabel": -1, "LabelID": 0, "NEAR_FID": -1, "NEAR_DIST": -1.0 }, "geometry": { "type": "Point", "coordinates": [ 17.083488700000032, -22.556046199999969, 0.0 ] } },
{ "type": "Feature", "properties": { "OID_": 0, "Name": "Robert Mugabe Road & Nelson Mandela Avenue", "FolderPath": "Untitled layer", "SymbolID": 0, "AltMode": -1, "Base": 0.0, "Snippet": null, "PopupInfo": null, "HasLabel": -1, "LabelID": 0, "NEAR_FID": 274, "NEAR_DIST": 496.682687794 }, "geometry": { "type": "Point", "coordinates": [ 17.087115, -22.551428899999962, 0.0 ] } },
{ "type": "Feature", "properties": { "OID_": 0, "Name": "Eros Primary School", "FolderPath": "Untitled layer", "SymbolID": 0, "AltMode": -1, "Base": 0.0, "Snippet": null, "PopupInfo": null, "HasLabel": -1, "LabelID": 0, "NEAR_FID": -1, "NEAR_DIST": -1.0 }, "geometry": { "type": "Point", "coordinates": [ 17.085370600000033, -22.548609, 0.0 ] } },
{ "type": "Feature", "properties": { "OID_": 0, "Name": "Total Eros", "FolderPath": "Untitled layer", "SymbolID": 0, "AltMode": -1, "Base": 0.0, "Snippet": null, "PopupInfo": null, "HasLabel": -1, "LabelID": 0, "NEAR_FID": -1, "NEAR_DIST": -1.0 }, "geometry": { "type": "Point", "coordinates": [ 17.084319200000039, -22.546092099999953, 0.0 ] } },
{ "type": "Feature", "properties": { "OID_": 0, "Name": "Eros Metro Supermarket", "FolderPath": "Untitled layer", "SymbolID": 0, "AltMode": -1, "Base": 0.0, "Snippet": null, "PopupInfo": null, "HasLabel": -1, "LabelID": 0, "NEAR_FID": 271, "NEAR_DIST": 335.06361959700001 }, "geometry": { "type": "Point", "coordinates": [ 17.091682300000059, -22.542120099999977, 0.0 ] } },
{ "type": "Feature", "properties": { "OID_": 0, "Name": "Urban Camp", "FolderPath": "Untitled layer", "SymbolID": 0, "AltMode": -1, "Base": 0.0, "Snippet": null, "PopupInfo": null, "HasLabel": -1, "LabelID": 0, "NEAR_FID": 274, "NEAR_DIST": 350.90170016899998 }, "geometry": { "type": "Point", "coordinates": [ 17.094404600000075, -22.553614, 0.0 ] } },
{ "type": "Feature", "properties": { "OID_": 0, "Name": "USA Embassy", "FolderPath": "Untitled layer", "SymbolID": 0, "AltMode": -1, "Base": 0.0, "Snippet": null, "PopupInfo": null, "HasLabel": -1, "LabelID": 0, "NEAR_FID": 268, "NEAR_DIST": 217.79436920200001 }, "geometry": { "type": "Point", "coordinates": [ 17.09658440000004, -22.559009699999933, 0.0 ] } },
{ "type": "Feature", "properties": { "OID_": 0, "Name": "NMH", "FolderPath": "Untitled layer", "SymbolID": 0, "AltMode": -1, "Base": 0.0, "Snippet": null, "PopupInfo": null, "HasLabel": -1, "LabelID": 0, "NEAR_FID": -1, "NEAR_DIST": -1.0 }, "geometry": { "type": "Point", "coordinates": [ 17.089153800000076, -22.54771379999994, 0.0 ] } },
{ "type": "Feature", "properties": { "OID_": 0, "Name": "St Paul College", "FolderPath": "Untitled layer", "SymbolID": 0, "AltMode": -1, "Base": 0.0, "Snippet": null, "PopupInfo": null, "HasLabel": -1, "LabelID": 0, "NEAR_FID": -1, "NEAR_DIST": -1.0 }, "geometry": { "type": "Point", "coordinates": [ 17.111073, -22.574373499999979, 0.0 ] } },
{ "type": "Feature", "properties": { "OID_": 0, "Name": "Jan Jonker & Nelson Mandela Avenue", "FolderPath": "Untitled layer", "SymbolID": 0, "AltMode": -1, "Base": 0.0, "Snippet": null, "PopupInfo": null, "HasLabel": -1, "LabelID": 0, "NEAR_FID": -1, "NEAR_DIST": -1.0 }, "geometry": { "type": "Point", "coordinates": [ 17.105134400000054, -22.575453299999936, 0.0 ] } },
{ "type": "Feature", "properties": { "OID_": 0, "Name": "Gobabis Road", "FolderPath": "Untitled layer", "SymbolID": 0, "AltMode": -1, "Base": 0.0, "Snippet": null, "PopupInfo": null, "HasLabel": -1, "LabelID": 0, "NEAR_FID": -1, "NEAR_DIST": -1.0 }, "geometry": { "type": "Point", "coordinates": [ 17.117038500000035, -22.580065399999967, 0.0 ] } },
{ "type": "Feature", "properties": { "OID_": 0, "Name": "France Embassy", "FolderPath": "Untitled layer", "SymbolID": 0, "AltMode": -1, "Base": 0.0, "Snippet": null, "PopupInfo": null, "HasLabel": -1, "LabelID": 0, "NEAR_FID": 285, "NEAR_DIST": 133.96133165699999 }, "geometry": { "type": "Point", "coordinates": [ 17.109938500000055, -22.564386199999944, 0.0 ] } },
{ "type": "Feature", "properties": { "OID_": 0, "Name": "Godwana Colleection", "FolderPath": "Untitled layer", "SymbolID": 0, "AltMode": -1, "Base": 0.0, "Snippet": null, "PopupInfo": null, "HasLabel": -1, "LabelID": 0, "NEAR_FID": 284, "NEAR_DIST": 124.91594213 }, "geometry": { "type": "Point", "coordinates": [ 17.102728700000057, -22.568032099999982, 0.0 ] } },
{ "type": "Feature", "properties": { "OID_": 0, "Name": "Pupkewitz Lifestyle", "FolderPath": "Untitled layer", "SymbolID": 0, "AltMode": -1, "Base": 0.0, "Snippet": null, "PopupInfo": null, "HasLabel": -1, "LabelID": 0, "NEAR_FID": 243, "NEAR_DIST": 43.143498626300001 }, "geometry": { "type": "Point", "coordinates": [ 17.091573500000038, -22.621297399999946, 0.0 ] } },
{ "type": "Feature", "properties": { "OID_": 0, "Name": "Frankie Fredricks Road & Henning Village Road", "FolderPath": "Untitled layer", "SymbolID": 0, "AltMode": -1, "Base": 0.0, "Snippet": null, "PopupInfo": null, "HasLabel": -1, "LabelID": 0, "NEAR_FID": 243, "NEAR_DIST": 490.35627686599997 }, "geometry": { "type": "Point", "coordinates": [ 17.092453300000045, -22.625357699999938, 0.0 ] } },
{ "type": "Feature", "properties": { "OID_": 0, "Name": "Lady Pohamba Hospital", "FolderPath": "Untitled layer", "SymbolID": 0, "AltMode": -1, "Base": 0.0, "Snippet": null, "PopupInfo": null, "HasLabel": -1, "LabelID": 0, "NEAR_FID": 242, "NEAR_DIST": 316.362690208 }, "geometry": { "type": "Point", "coordinates": [ 17.095500300000026, -22.622846599999946, 0.0 ] } },
{ "type": "Feature", "properties": { "OID_": 0, "Name": "Virgin Active Gym", "FolderPath": "Untitled layer", "SymbolID": 0, "AltMode": -1, "Base": 0.0, "Snippet": null, "PopupInfo": null, "HasLabel": -1, "LabelID": 0, "NEAR_FID": 242, "NEAR_DIST": 319.25599657499998 }, "geometry": { "type": "Point", "coordinates": [ 17.095687700000042, -22.61850359999994, 0.0 ] } },
{ "type": "Feature", "properties": { "OID_": 0, "Name": "Ameib Kindergarden", "FolderPath": "Untitled layer", "SymbolID": 0, "AltMode": -1, "Base": 0.0, "Snippet": null, "PopupInfo": null, "HasLabel": -1, "LabelID": 0, "NEAR_FID": 241, "NEAR_DIST": 245.845648396 }, "geometry": { "type": "Point", "coordinates": [ 17.102404, -22.619613699999945, 0.0 ] } },
{ "type": "Feature", "properties": { "OID_": 0, "Name": "Windhoek Gymnasium", "FolderPath": "Untitled layer", "SymbolID": 0, "AltMode": -1, "Base": 0.0, "Snippet": null, "PopupInfo": null, "HasLabel": -1, "LabelID": 0, "NEAR_FID": -1, "NEAR_DIST": -1.0 }, "geometry": { "type": "Point", "coordinates": [ 17.110751, -22.614964599999951, 0.0 ] } },
{ "type": "Feature", "properties": { "OID_": 0, "Name": "Truckport", "FolderPath": "Untitled layer", "SymbolID": 0, "AltMode": -1, "Base": 0.0, "Snippet": null, "PopupInfo": null, "HasLabel": -1, "LabelID": 0, "NEAR_FID": -1, "NEAR_DIST": -1.0 }, "geometry": { "type": "Point", "coordinates": [ 17.087129200000049, -22.611758499999951, 0.0 ] } },
{ "type": "Feature", "properties": { "OID_": 0, "Name": "Sean McBridge Street & Frankie Fredricks", "FolderPath": "Untitled layer", "SymbolID": 0, "AltMode": -1, "Base": 0.0, "Snippet": null, "PopupInfo": null, "HasLabel": -1, "LabelID": 0, "NEAR_FID": -1, "NEAR_DIST": -1.0 }, "geometry": { "type": "Point", "coordinates": [ 17.095612, -22.610034699999972, 0.0 ] } },
{ "type": "Feature", "properties": { "OID_": 0, "Name": "Robert Mugabe & Frankie Fredriks", "FolderPath": "Untitled layer", "SymbolID": 0, "AltMode": -1, "Base": 0.0, "Snippet": null, "PopupInfo": null, "HasLabel": -1, "LabelID": 0, "NEAR_FID": 282, "NEAR_DIST": 251.642255643 }, "geometry": { "type": "Point", "coordinates": [ 17.103937500000029, -22.607281299999954, 0.0 ] } },
{ "type": "Feature", "properties": { "OID_": 0, "Name": "Olympia 4 Way", "FolderPath": "Untitled layer", "SymbolID": 0, "AltMode": -1, "Base": 0.0, "Snippet": null, "PopupInfo": null, "HasLabel": -1, "LabelID": 0, "NEAR_FID": 263, "NEAR_DIST": 397.97664821500001 }, "geometry": { "type": "Point", "coordinates": [ 17.094303, -22.605003199999942, 0.0 ] } },
{ "type": "Feature", "properties": { "OID_": 0, "Name": "Olympia Circle", "FolderPath": "Untitled layer", "SymbolID": 0, "AltMode": -1, "Base": 0.0, "Snippet": null, "PopupInfo": null, "HasLabel": -1, "LabelID": 0, "NEAR_FID": 263, "NEAR_DIST": 473.19129192899999 }, "geometry": { "type": "Point", "coordinates": [ 17.102049300000033, -22.602170499999943, 0.0 ] } },
{ "type": "Feature", "properties": { "OID_": 0, "Name": "Laurent Desire Kabila Street & Robert Mugabe", "FolderPath": "Untitled layer", "SymbolID": 0, "AltMode": -1, "Base": 0.0, "Snippet": null, "PopupInfo": null, "HasLabel": -1, "LabelID": 0, "NEAR_FID": 262, "NEAR_DIST": 487.72795932299999 }, "geometry": { "type": "Point", "coordinates": [ 17.100203900000054, -22.595276499999954, 0.0 ] } },
{ "type": "Feature", "properties": { "OID_": 0, "Name": "State House", "FolderPath": "Untitled layer", "SymbolID": 0, "AltMode": -1, "Base": 0.0, "Snippet": null, "PopupInfo": null, "HasLabel": -1, "LabelID": 0, "NEAR_FID": -1, "NEAR_DIST": -1.0 }, "geometry": { "type": "Point", "coordinates": [ 17.098268800000028, -22.58988439999996, 0.0 ] } },
{ "type": "Feature", "properties": { "OID_": 0, "Name": "Suiderhof Primary School", "FolderPath": "Untitled layer", "SymbolID": 0, "AltMode": -1, "Base": 0.0, "Snippet": null, "PopupInfo": null, "HasLabel": -1, "LabelID": 0, "NEAR_FID": 245, "NEAR_DIST": 239.872590355 }, "geometry": { "type": "Point", "coordinates": [ 17.086853400000052, -22.589947799999948, 0.0 ] } },
{ "type": "Feature", "properties": { "OID_": 0, "Name": "Klein Professor College", "FolderPath": "Untitled layer", "SymbolID": 0, "AltMode": -1, "Base": 0.0, "Snippet": null, "PopupInfo": null, "HasLabel": -1, "LabelID": 0, "NEAR_FID": -1, "NEAR_DIST": -1.0 }, "geometry": { "type": "Point", "coordinates": [ 17.093726600000025, -22.592768399999954, 0.0 ] } },
{ "type": "Feature", "properties": { "OID_": 0, "Name": "CTM", "FolderPath": "Untitled layer", "SymbolID": 0, "AltMode": -1, "Base": 0.0, "Snippet": null, "PopupInfo": null, "HasLabel": -1, "LabelID": 0, "NEAR_FID": -1, "NEAR_DIST": -1.0 }, "geometry": { "type": "Point", "coordinates": [ 17.080637400000057, -22.58896459999994, 0.0 ] } },
{ "type": "Feature", "properties": { "OID_": 0, "Name": "Tacoma Street", "FolderPath": "Untitled layer", "SymbolID": 0, "AltMode": -1, "Base": 0.0, "Snippet": null, "PopupInfo": null, "HasLabel": -1, "LabelID": 0, "NEAR_FID": -1, "NEAR_DIST": -1.0 }, "geometry": { "type": "Point", "coordinates": [ 17.080551600000035, -22.591163699999981, 0.0 ] } },
{ "type": "Feature", "properties": { "OID_": 0, "Name": "Julius Nyerere Street & Robert Mugabe", "FolderPath": "Untitled layer", "SymbolID": 0, "AltMode": -1, "Base": 0.0, "Snippet": null, "PopupInfo": null, "HasLabel": -1, "LabelID": 0, "NEAR_FID": 278, "NEAR_DIST": 210.37684764 }, "geometry": { "type": "Point", "coordinates": [ 17.090507900000034, -22.575571299999979, 0.0 ] } },
{ "type": "Feature", "properties": { "OID_": 0, "Name": "Kingfisher & Raben Street", "FolderPath": "Untitled layer", "SymbolID": 0, "AltMode": -1, "Base": 0.0, "Snippet": null, "PopupInfo": null, "HasLabel": -1, "LabelID": 0, "NEAR_FID": -1, "NEAR_DIST": -1.0 }, "geometry": { "type": "Point", "coordinates": [ 17.065162600000065, -22.574853099999928, 0.0 ] } },
{ "type": "Feature", "properties": { "OID_": 0, "Name": "Hochland Engen Robot", "FolderPath": "Untitled layer", "SymbolID": 0, "AltMode": -1, "Base": 0.0, "Snippet": null, "PopupInfo": null, "HasLabel": -1, "LabelID": 0, "NEAR_FID": 234, "NEAR_DIST": 235.70939047499999 }, "geometry": { "type": "Point", "coordinates": [ 17.058274700000027, -22.573842599999978, 0.0 ] } },
{ "type": "Feature", "properties": { "OID_": 0, "Name": "OK Food Hochland", "FolderPath": "Untitled layer", "SymbolID": 0, "AltMode": -1, "Base": 0.0, "Snippet": null, "PopupInfo": null, "HasLabel": -1, "LabelID": 0, "NEAR_FID": -1, "NEAR_DIST": -1.0 }, "geometry": { "type": "Point", "coordinates": [ 17.058401400000037, -22.579370499999982, 0.0 ] } },
{ "type": "Feature", "properties": { "OID_": 0, "Name": "Westlane", "FolderPath": "Untitled layer", "SymbolID": 0, "AltMode": -1, "Base": 0.0, "Snippet": null, "PopupInfo": null, "HasLabel": -1, "LabelID": 0, "NEAR_FID": 235, "NEAR_DIST": 437.82559495599997 }, "geometry": { "type": "Point", "coordinates": [ 17.052801, -22.580797099999927, 0.0 ] } },
{ "type": "Feature", "properties": { "OID_": 0, "Name": "Academia High School", "FolderPath": "Untitled layer", "SymbolID": 0, "AltMode": -1, "Base": 0.0, "Snippet": null, "PopupInfo": null, "HasLabel": -1, "LabelID": 0, "NEAR_FID": -1, "NEAR_DIST": -1.0 }, "geometry": { "type": "Point", "coordinates": [ 17.063604800000064, -22.60968209999993, 0.0 ] } },
{ "type": "Feature", "properties": { "OID_": 0, "Name": "Emona 3 Way", "FolderPath": "Untitled layer", "SymbolID": 0, "AltMode": -1, "Base": 0.0, "Snippet": null, "PopupInfo": null, "HasLabel": -1, "LabelID": 0, "NEAR_FID": 244, "NEAR_DIST": 139.98636128800001 }, "geometry": { "type": "Point", "coordinates": [ 17.06218860000007, -22.604245699999979, 0.0 ] } },
{ "type": "Feature", "properties": { "OID_": 0, "Name": "Bernt Carlsson", "FolderPath": "Untitled layer", "SymbolID": 0, "AltMode": -1, "Base": 0.0, "Snippet": null, "PopupInfo": null, "HasLabel": -1, "LabelID": 0, "NEAR_FID": -1, "NEAR_DIST": -1.0 }, "geometry": { "type": "Point", "coordinates": [ 17.060922600000026, -22.595747299999971, 0.0 ] } },
{ "type": "Feature", "properties": { "OID_": 0, "Name": "Pioneerspark Woernmann Brock", "FolderPath": "Untitled layer", "SymbolID": 0, "AltMode": -1, "Base": 0.0, "Snippet": null, "PopupInfo": null, "HasLabel": -1, "LabelID": 0, "NEAR_FID": -1, "NEAR_DIST": -1.0 }, "geometry": { "type": "Point", "coordinates": [ 17.063046900000074, -22.586792599999967, 0.0 ] } },
{ "type": "Feature", "properties": { "OID_": 0, "Name": "Wanderers Sport Ground", "FolderPath": "Untitled layer", "SymbolID": 0, "AltMode": -1, "Base": 0.0, "Snippet": null, "PopupInfo": null, "HasLabel": -1, "LabelID": 0, "NEAR_FID": -1, "NEAR_DIST": -1.0 }, "geometry": { "type": "Point", "coordinates": [ 17.067322600000068, -22.590239799999949, 0.0 ] } },
{ "type": "Feature", "properties": { "OID_": 0, "Name": "Total Pioneers Park", "FolderPath": "Untitled layer", "SymbolID": 0, "AltMode": -1, "Base": 0.0, "Snippet": null, "PopupInfo": null, "HasLabel": -1, "LabelID": 0, "NEAR_FID": 237, "NEAR_DIST": 470.08708624399998 }, "geometry": { "type": "Point", "coordinates": [ 17.069088700000066, -22.598970299999962, 0.0 ] } },
{ "type": "Feature", "properties": { "OID_": 0, "Name": "Baines", "FolderPath": "Untitled layer", "SymbolID": 0, "AltMode": -1, "Base": 0.0, "Snippet": null, "PopupInfo": null, "HasLabel": -1, "LabelID": 0, "NEAR_FID": 237, "NEAR_DIST": 37.485444914799999 }, "geometry": { "type": "Point", "coordinates": [ 17.064908, -22.600024299999973, 0.0 ] } },
{ "type": "Feature", "properties": { "OID_": 0, "Name": "Pioneers Park Plyground", "FolderPath": "Untitled layer", "SymbolID": 0, "AltMode": -1, "Base": 0.0, "Snippet": null, "PopupInfo": null, "HasLabel": -1, "LabelID": 0, "NEAR_FID": -1, "NEAR_DIST": -1.0 }, "geometry": { "type": "Point", "coordinates": [ 17.057031600000073, -22.589107899999931, 0.0 ] } },
{ "type": "Feature", "properties": { "OID_": 0, "Name": "Dorado Park Circle", "FolderPath": "Untitled layer", "SymbolID": 0, "AltMode": -1, "Base": 0.0, "Snippet": null, "PopupInfo": null, "HasLabel": -1, "LabelID": 0, "NEAR_FID": 248, "NEAR_DIST": 353.303674769 }, "geometry": { "type": "Point", "coordinates": [ 17.058006, -22.56783409999997, 0.0 ] } },
{ "type": "Feature", "properties": { "OID_": 0, "Name": "Dorado Valley 4 way", "FolderPath": "Untitled layer", "SymbolID": 0, "AltMode": -1, "Base": 0.0, "Snippet": null, "PopupInfo": null, "HasLabel": -1, "LabelID": 0, "NEAR_FID": 247, "NEAR_DIST": 362.82826226100002 }, "geometry": { "type": "Point", "coordinates": [ 17.063692300000071, -22.559621799999945, 0.0 ] } },
{ "type": "Feature", "properties": { "OID_": 0, "Name": "Bach Street & Florence Nightigale", "FolderPath": "Untitled layer", "SymbolID": 0, "AltMode": -1, "Base": 0.0, "Snippet": null, "PopupInfo": null, "HasLabel": -1, "LabelID": 0, "NEAR_FID": 246, "NEAR_DIST": 262.61579896400002 }, "geometry": { "type": "Point", "coordinates": [ 17.064851, -22.553736399999934, 0.0 ] } },
{ "type": "Feature", "properties": { "OID_": 0, "Name": "Damara Lokasie", "FolderPath": "Untitled layer", "SymbolID": 0, "AltMode": -1, "Base": 0.0, "Snippet": null, "PopupInfo": null, "HasLabel": -1, "LabelID": 0, "NEAR_FID": 213, "NEAR_DIST": 0.0 }, "geometry": { "type": "Point", "coordinates": [ 17.062780500000031, -22.520389899999941, 0.0 ] } },
{ "type": "Feature", "properties": { "OID_": 0, "Name": "School of Medicine Robots", "FolderPath": "Untitled layer", "SymbolID": 0, "AltMode": -1, "Base": 0.0, "Snippet": null, "PopupInfo": null, "HasLabel": -1, "LabelID": 0, "NEAR_FID": -1, "NEAR_DIST": -1.0 }, "geometry": { "type": "Point", "coordinates": [ 17.062155700000062, -22.544762299999945, 0.0 ] } },
{ "type": "Feature", "properties": { "OID_": 0, "Name": "Academia Checkers", "FolderPath": "Untitled layer", "SymbolID": 0, "AltMode": -1, "Base": 0.0, "Snippet": null, "PopupInfo": null, "HasLabel": -1, "LabelID": 0, "NEAR_FID": -1, "NEAR_DIST": -1.0 }, "geometry": { "type": "Point", "coordinates": [ 17.072294700000043, -22.610326199999975, 0.0 ] } },
{ "type": "Feature", "properties": { "OID_": 0, "Name": "Cibebasia 4 Way", "FolderPath": "Untitled layer", "SymbolID": 0, "AltMode": -1, "Base": 0.0, "Snippet": null, "PopupInfo": null, "HasLabel": -1, "LabelID": 0, "NEAR_FID": 259, "NEAR_DIST": 440.95147666100002 }, "geometry": { "type": "Point", "coordinates": [ 17.07924010000005, -22.627768799999956, 0.0 ] } }
]
}
